{
    "type": "FeatureCollection",
    "crs": {
      "type": "name",
      "properties": { "name": "urn:ogc:def:crs:OGC:1.3:CRS84" }
    },
    "features": [
      {
        "type": "Feature",
        "properties": {
          "PARK_ID": 5234,
          "FACILITYID": 36001,
          "NAME": "Lauren Wisemant (Skieur Élite de Brousse de l'Extrême) AKA (The Jolie Bichon) ",    
          "DESCRIPTIO": "Skieur extrème et pièton qui n'utilise pas le troittoir qui borde la chaussé"      
    
        },
        "geometry": {
          "type": "Point",
          "coordinates": [-71.23357052831147, 46.805068961955286]
        }
      },
      {
        "type": "Feature",
        "properties": {
          "PARK_ID": 5234,
          "FACILITYID": 36001,
          "NAME": "Alexandre Côté (Skieur Élite Extrême)",    
          "DESCRIPTIO": "Jibbeur semi-po-pire, sous-bois en puissance, biêre occasionnelle"          
        },
        "geometry": {
          "type": "Point",
          "coordinates": [-71.22782810000001, 46.808294999999994]
        }
      },
      {
        "type": "Feature",
        "properties": {
          "PARK_ID": 5234,
          "FACILITYID": 36001,
          "NAME": "Pier-Yves Grondin (Snowboardeur Élite Extrême)",    
          "DESCRIPTIO": "Enthousiaste de la glisse, père exceptionnelle, vomit dans son bain occasionnellement"          
        },
        "geometry": {
          "type": "Point",
          "coordinates": [-71.22449335274922, 46.81079183579976]
        }
      },
      {
        "type": "Feature",
        "properties": {
          "PARK_ID": 5231,
          "FACILITYID": 34001,
          "NAME": "Olivier Prime Jomphe (Snowboardeur Élite Extrême)",    
          "DESCRIPTIO": "Enthousiaste des vin SAQ, 360 master, n'a pas vomit dans son bain"          
        },
        "geometry": {
          "type": "Point",
          "coordinates": [-71.24347983916724, 46.813632718264564]
        }
      },
      {
        "type": "Feature",
        "properties": {
          "PARK_ID": 5232,
          "FACILITYID": 37001,
          "NAME": "Phil The King (Snowboardeur Élite Extrème)",    
          "DESCRIPTIO": "Enthousiaste des quiz alchoolisé, un intello sur le party -jolie fille sur la rue + n'a pas vomit dans son bain"          
        },
        "geometry": {
          "type": "Point",
          "coordinates": [-71.22578196609498, 46.810224066267864]
        }
      },
      {
        "type": "Feature",
        "properties": {
          "PARK_ID": 5232,
          "FACILITYID": 36032,
          "NAME": "Phil Wiseman AKA (Skieur Élite Extrême) AKA (The WildCat)",    
          "DESCRIPTIO": "Leader du can Elite Extême, sous-bois extraordinaire, biêre et brousaille a l'occasion"          
        },
        "geometry": {
          "type": "Point",
          "coordinates": [-71.24699097309752, 46.79363152494619]
        }
      }   
      
    ]
  }